[{"stn":209, "lon":4.518, "lat":52.465, "alt":0.0, "name":"IJMOND"},
 {"stn":210, "lon":4.43, "lat":52.171, "alt":-0.2, "name":"VALKENBURG"},
 {"stn":215, "lon":4.437, "lat":52.141, "alt":-1.1, "name":"VOORSCHOTEN"},
 {"stn":225, "lon":4.555, "lat":52.463, "alt":4.4, "name":"IJMUIDEN"},
 {"stn":235, "lon":4.781, "lat":52.928, "alt":1.2, "name":"DEKOOY"},
 {"stn":240, "lon":4.79, "lat":52.318, "alt":-3.3, "name":"SCHIPHOL"},
 {"stn":242, "lon":4.921, "lat":53.241, "alt":10.8, "name":"VLIELAND"},
 {"stn":248, "lon":5.174, "lat":52.634, "alt":0.8, "name":"WIJDENES"},
 {"stn":249, "lon":4.979, "lat":52.644, "alt":-2.4, "name":"BERKHOUT"},
 {"stn":251, "lon":5.346, "lat":53.392, "alt":0.7, "name":"HOORN(TERSCHELLING)"},
 {"stn":257, "lon":4.603, "lat":52.506, "alt":8.5, "name":"WIJKAANZEE"},
 {"stn":258, "lon":5.401, "lat":52.649, "alt":7.3, "name":"HOUTRIBDIJK"},
 {"stn":260, "lon":5.18, "lat":52.1, "alt":1.9, "name":"DEBILT"},
 {"stn":265, "lon":5.274, "lat":52.13, "alt":13.9, "name":"SOESTERBERG"},
 {"stn":267, "lon":5.384, "lat":52.898, "alt":-1.3, "name":"STAVOREN"},
 {"stn":269, "lon":5.52, "lat":52.458, "alt":-3.7, "name":"LELYSTAD"},
 {"stn":270, "lon":5.752, "lat":53.224, "alt":1.2, "name":"LEEUWARDEN"},
 {"stn":273, "lon":5.888, "lat":52.703, "alt":-3.3, "name":"MARKNESSE"},
 {"stn":275, "lon":5.873, "lat":52.056, "alt":48.2, "name":"DEELEN"},
 {"stn":277, "lon":6.2, "lat":53.413, "alt":2.9, "name":"LAUWERSOOG"},
 {"stn":278, "lon":6.259, "lat":52.435, "alt":3.6, "name":"HEINO"},
 {"stn":279, "lon":6.574, "lat":52.75, "alt":15.8, "name":"HOOGEVEEN"},
 {"stn":280, "lon":6.585, "lat":53.125, "alt":5.2, "name":"EELDE"},
 {"stn":283, "lon":6.657, "lat":52.069, "alt":29.1, "name":"HUPSEL"},
 {"stn":285, "lon":6.399, "lat":53.575, "alt":0.0, "name":"HUIBERTGAT"},
 {"stn":286, "lon":7.15, "lat":53.196, "alt":-0.2, "name":"NIEUWBEERTA"},
 {"stn":290, "lon":6.891, "lat":52.274, "alt":34.8, "name":"TWENTHE"},
 {"stn":308, "lon":3.379, "lat":51.381, "alt":0.0, "name":"CADZAND"},
 {"stn":310, "lon":3.596, "lat":51.442, "alt":8.0, "name":"VLISSINGEN"},
 {"stn":311, "lon":3.672, "lat":51.379, "alt":0.0, "name":"HOOFDPLAAT"},
 {"stn":312, "lon":3.622, "lat":51.768, "alt":0.0, "name":"OOSTERSCHELDE"},
 {"stn":313, "lon":3.242, "lat":51.505, "alt":0.0, "name":"VLAKTEV.D.RAAN"},
 {"stn":315, "lon":3.998, "lat":51.447, "alt":0.0, "name":"HANSWEERT"},
 {"stn":316, "lon":3.694, "lat":51.657, "alt":0.0, "name":"SCHAAR"},
 {"stn":319, "lon":3.861, "lat":51.226, "alt":1.7, "name":"WESTDORPE"},
 {"stn":323, "lon":3.884, "lat":51.527, "alt":1.4, "name":"WILHELMINADORP"},
 {"stn":324, "lon":4.006, "lat":51.596, "alt":0.0, "name":"STAVENISSE"},
 {"stn":330, "lon":4.122, "lat":51.992, "alt":11.9, "name":"HOEKVANHOLLAND"},
 {"stn":331, "lon":4.193, "lat":51.48, "alt":0.0, "name":"THOLEN"},
 {"stn":340, "lon":4.342, "lat":51.449, "alt":19.2, "name":"WOENSDRECHT"},
 {"stn":343, "lon":4.313, "lat":51.893, "alt":3.5, "name":"R'DAM-GEULHAVEN"},
 {"stn":344, "lon":4.447, "lat":51.962, "alt":-4.3, "name":"ROTTERDAM"},
 {"stn":348, "lon":4.926, "lat":51.97, "alt":-0.7, "name":"CABAUW"},
 {"stn":350, "lon":4.936, "lat":51.566, "alt":14.9, "name":"GILZE-RIJEN"},
 {"stn":356, "lon":5.146, "lat":51.859, "alt":0.7, "name":"HERWIJNEN"},
 {"stn":370, "lon":5.377, "lat":51.451, "alt":22.6, "name":"EINDHOVEN"},
 {"stn":375, "lon":5.707, "lat":51.659, "alt":22.0, "name":"VOLKEL"},
 {"stn":377, "lon":5.763, "lat":51.198, "alt":30.0, "name":"ELL"},
 {"stn":380, "lon":5.762, "lat":50.906, "alt":114.3, "name":"MAASTRICHT"},
 {"stn":391, "lon":6.197, "lat":51.498, "alt":19.5, "name":"ARCEN"}]